[
  {
    "addressLine1": "32 Rue Nationale",
    "addressLine2": "Appartement 5",
    "city": "Paris",
    "zipCode": "75001",
    "country": "France",
    "longitude": "2.3471859",
    "latitude": "48.8504852",
    "surface": 441,
    "mixedGender": false,
    "ownershipDeedPath": "generic-ownership-deed.pdf",
    "insuranceCertificatePath": "generic-insurance-certificate.pdf",
    "coverPicture": "generic-paris-1.jpg"
  },
  {
    "addressLine1": "77 Rue de la République",
    "addressLine2": "Bâtiment B, étage 2",
    "city": "Paris",
    "zipCode": "75002",
    "country": "France",
    "longitude": "2.3609465",
    "latitude": "48.8536553",
    "surface": 329,
    "mixedGender": true,
    "ownershipDeedPath": "generic-ownership-deed.pdf",
    "insuranceCertificatePath": "generic-insurance-certificate.pdf",
    "coverPicture": "generic-paris-2.jpg"
  },
  {
    "addressLine1": "183 Boulevard Saint-Germain",
    "addressLine2": null,
    "city": "Paris",
    "zipCode": "75003",
    "country": "France",
    "longitude": "2.3586294",
    "latitude": "48.8617246",
    "surface": 259,
    "mixedGender": false,
    "ownershipDeedPath": "generic-ownership-deed.pdf",
    "insuranceCertificatePath": "generic-insurance-certificate.pdf",
    "coverPicture": "generic-paris-3.jpg"
  },
  {
    "addressLine1": "48 Rue des Lilas",
    "addressLine2": "Résidence Les Jardins",
    "city": "Paris",
    "zipCode": "75004",
    "country": "France",
    "longitude": "2.3616404",
    "latitude": "48.8563165",
    "surface": 426,
    "mixedGender": false,
    "ownershipDeedPath": "generic-ownership-deed.pdf",
    "insuranceCertificatePath": "generic-insurance-certificate.pdf",
    "coverPicture": "generic-paris-4.jpg"
  },
  {
    "addressLine1": "220 Avenue Victor Hugo",
    "addressLine2": "Appartement 5",
    "city": "Paris",
    "zipCode": "75005",
    "country": "France",
    "longitude": "2.3695854",
    "latitude": "48.8621545",
    "surface": 210,
    "mixedGender": true,
    "ownershipDeedPath": "generic-ownership-deed.pdf",
    "insuranceCertificatePath": "generic-insurance-certificate.pdf",
    "coverPicture": "generic-paris-5.jpg"
  },
  {
    "addressLine1": "47 Rue du Général-Leclerc",
    "addressLine2": "Bâtiment A",
    "city": "Paris",
    "zipCode": "75006",
    "country": "France",
    "longitude": "2.3609533",
    "latitude": "48.8487560",
    "surface": 313,
    "mixedGender": true,
    "ownershipDeedPath": "generic-ownership-deed.pdf",
    "insuranceCertificatePath": "generic-insurance-certificate.pdf",
    "coverPicture": "generic-paris-6.jpg"
  },
  {
    "addressLine1": "195 Boulevard Carnot",
    "addressLine2": null,
    "city": "Paris",
    "zipCode": "75007",
    "country": "France",
    "longitude": "2.3672502",
    "latitude": "48.8596300",
    "surface": 231,
    "mixedGender": false,
    "ownershipDeedPath": "generic-ownership-deed.pdf",
    "insuranceCertificatePath": "generic-insurance-certificate.pdf",
    "coverPicture": "generic-paris-7.jpg"
  },
  {
    "addressLine1": "144 Rue Nationale",
    "addressLine2": "Bâtiment B, étage 2",
    "city": "Paris",
    "zipCode": "75008",
    "country": "France",
    "longitude": "2.3479883",
    "latitude": "48.8625381",
    "surface": 428,
    "mixedGender": false,
    "ownershipDeedPath": "generic-ownership-deed.pdf",
    "insuranceCertificatePath": "generic-insurance-certificate.pdf",
    "coverPicture": "generic-paris-8.jpg"
  },
  {
    "addressLine1": "234 Rue de la République",
    "addressLine2": "Appartement 5",
    "city": "Paris",
    "zipCode": "75009",
    "country": "France",
    "longitude": "2.3419648",
    "latitude": "48.8619416",
    "surface": 399,
    "mixedGender": true,
    "ownershipDeedPath": "generic-ownership-deed.pdf",
    "insuranceCertificatePath": "generic-insurance-certificate.pdf",
    "coverPicture": "generic-paris-9.jpg"
  },
  {
    "addressLine1": "169 Rue des Lilas",
    "addressLine2": "Appartement 5",
    "city": "Paris",
    "zipCode": "75010",
    "country": "France",
    "longitude": "2.3498408",
    "latitude": "48.8675584",
    "surface": 318,
    "mixedGender": false,
    "ownershipDeedPath": "generic-ownership-deed.pdf",
    "insuranceCertificatePath": "generic-insurance-certificate.pdf",
    "coverPicture": "generic-paris-10.jpg"
  },
  {
    "addressLine1": "54 Rue de la République",
    "addressLine2": null,
    "city": "Paris",
    "zipCode": "75011",
    "country": "France",
    "longitude": "2.3596682",
    "latitude": "48.8634558",
    "surface": 299,
    "mixedGender": true,
    "ownershipDeedPath": "generic-ownership-deed.pdf",
    "insuranceCertificatePath": "generic-insurance-certificate.pdf",
    "coverPicture": "generic-paris-11.jpg"
  },
  {
    "addressLine1": "173 Boulevard Saint-Germain",
    "addressLine2": "Bâtiment B, étage 2",
    "city": "Paris",
    "zipCode": "75012",
    "country": "France",
    "longitude": "2.3613719",
    "latitude": "48.8478786",
    "surface": 408,
    "mixedGender": true,
    "ownershipDeedPath": "generic-ownership-deed.pdf",
    "insuranceCertificatePath": "generic-insurance-certificate.pdf",
    "coverPicture": "generic-paris-12.jpg"
  },
  {
    "addressLine1": "69 Rue Nationale",
    "addressLine2": "Résidence Les Jardins",
    "city": "Paris",
    "zipCode": "75013",
    "country": "France",
    "longitude": "2.3516776",
    "latitude": "48.8398150",
    "surface": 423,
    "mixedGender": false,
    "ownershipDeedPath": "generic-ownership-deed.pdf",
    "insuranceCertificatePath": "generic-insurance-certificate.pdf",
    "coverPicture": "generic-paris-13.jpg"
  },
  {
    "addressLine1": "213 Rue du Général-Leclerc",
    "addressLine2": "Appartement 5",
    "city": "Paris",
    "zipCode": "75014",
    "country": "France",
    "longitude": "2.3362379",
    "latitude": "48.8319187",
    "surface": 437,
    "mixedGender": false,
    "ownershipDeedPath": "generic-ownership-deed.pdf",
    "insuranceCertificatePath": "generic-insurance-certificate.pdf",
    "coverPicture": "generic-paris-14.jpg"
  },
  {
    "addressLine1": "246 Boulevard Carnot",
    "addressLine2": "Appartement 5",
    "city": "Paris",
    "zipCode": "75015",
    "country": "France",
    "longitude": "2.3017312",
    "latitude": "48.8414715",
    "surface": 341,
    "mixedGender": false,
    "ownershipDeedPath": "generic-ownership-deed.pdf",
    "insuranceCertificatePath": "generic-insurance-certificate.pdf",
    "coverPicture": "generic-paris-15.jpg"
  },
  {
    "addressLine1": "69 Rue de la République",
    "addressLine2": "Bâtiment B, étage 2",
    "city": "Marseille",
    "zipCode": "13014",
    "country": "France",
    "longitude": "5.3650335",
    "latitude": "43.3002444",
    "surface": 290,
    "mixedGender": true,
    "ownershipDeedPath": "generic-ownership-deed.pdf",
    "insuranceCertificatePath": "generic-insurance-certificate.pdf",
    "coverPicture": "generic-marseille-1.jpg"
  },
  {
    "addressLine1": "180 Boulevard Carnot",
    "addressLine2": null,
    "city": "Marseille",
    "zipCode": "13005",
    "country": "France",
    "longitude": "5.3764956",
    "latitude": "43.2910435",
    "surface": 351,
    "mixedGender": false,
    "ownershipDeedPath": "generic-ownership-deed.pdf",
    "insuranceCertificatePath": "generic-insurance-certificate.pdf",
    "coverPicture": "generic-marseille-2.jpg"
  },
  {
    "addressLine1": "27 Rue des Lilas",
    "addressLine2": "Appartement 5",
    "city": "Marseille",
    "zipCode": "13010",
    "country": "France",
    "longitude": "5.3726050",
    "latitude": "43.2786476",
    "surface": 235,
    "mixedGender": false,
    "ownershipDeedPath": "generic-ownership-deed.pdf",
    "insuranceCertificatePath": "generic-insurance-certificate.pdf",
    "coverPicture": "generic-marseille-3.jpg"
  },
  {
    "addressLine1": "220 Rue du Général-Leclerc",
    "addressLine2": "Bâtiment A",
    "city": "Marseille",
    "zipCode": "13001",
    "country": "France",
    "longitude": "5.3702578",
    "latitude": "43.2996930",
    "surface": 434,
    "mixedGender": true,
    "ownershipDeedPath": "generic-ownership-deed.pdf",
    "insuranceCertificatePath": "generic-insurance-certificate.pdf",
    "coverPicture": "generic-marseille-4.jpg"
  },
  {
    "addressLine1": "123 Boulevard Saint-Germain",
    "addressLine2": null,
    "city": "Marseille",
    "zipCode": "13015",
    "country": "France",
    "longitude": "5.3637176",
    "latitude": "43.3476785",
    "surface": 302,
    "mixedGender": false,
    "ownershipDeedPath": "generic-ownership-deed.pdf",
    "insuranceCertificatePath": "generic-insurance-certificate.pdf",
    "coverPicture": "generic-marseille-5.jpg"
  },
  {
    "addressLine1": "216 Avenue Victor Hugo",
    "addressLine2": "Résidence Les Jardins",
    "city": "Marseille",
    "zipCode": "13008",
    "country": "France",
    "longitude": "5.3821459",
    "latitude": "43.2662364",
    "surface": 390,
    "mixedGender": true,
    "ownershipDeedPath": "generic-ownership-deed.pdf",
    "insuranceCertificatePath": "generic-insurance-certificate.pdf",
    "coverPicture": "generic-marseille-6.jpg"
  },
  {
    "addressLine1": "88 Rue Nationale",
    "addressLine2": "Appartement 5",
    "city": "Marseille",
    "zipCode": "13012",
    "country": "France",
    "longitude": "5.4206686",
    "latitude": "43.3032760",
    "surface": 407,
    "mixedGender": false,
    "ownershipDeedPath": "generic-ownership-deed.pdf",
    "insuranceCertificatePath": "generic-insurance-certificate.pdf",
    "coverPicture": "generic-marseille-7.jpg"
  },
  {
    "addressLine1": "171 Avenue Victor Hugo",
    "addressLine2": "Bâtiment A",
    "city": "Lyon",
    "zipCode": "69007",
    "country": "France",
    "longitude": "4.8315659",
    "latitude": "45.7513519",
    "surface": 426,
    "mixedGender": false,
    "ownershipDeedPath": "generic-ownership-deed.pdf",
    "insuranceCertificatePath": "generic-insurance-certificate.pdf",
    "coverPicture": "generic-lyon-1.jpg"
  },
  {
    "addressLine1": "189 Rue du Général-Leclerc",
    "addressLine2": "Bâtiment B, étage 2",
    "city": "Lyon",
    "zipCode": "69003",
    "country": "France",
    "longitude": "4.8692407",
    "latitude": "45.7560181",
    "surface": 215,
    "mixedGender": true,
    "ownershipDeedPath": "generic-ownership-deed.pdf",
    "insuranceCertificatePath": "generic-insurance-certificate.pdf",
    "coverPicture": "generic-lyon-2.jpg"
  },
  {
    "addressLine1": "231 Boulevard Saint-Germain",
    "addressLine2": "Appartement 5",
    "city": "Lyon",
    "zipCode": "69006",
    "country": "France",
    "longitude": "4.8739415",
    "latitude": "45.7723340",
    "surface": 242,
    "mixedGender": true,
    "ownershipDeedPath": "generic-ownership-deed.pdf",
    "insuranceCertificatePath": "generic-insurance-certificate.pdf",
    "coverPicture": "generic-lyon-3.jpg"
  },
  {
    "addressLine1": "151 Rue Nationale",
    "addressLine2": null,
    "city": "Lyon",
    "zipCode": "69001",
    "country": "France",
    "longitude": "4.8330879",
    "latitude": "45.7707268",
    "surface": 440,
    "mixedGender": false,
    "ownershipDeedPath": "generic-ownership-deed.pdf",
    "insuranceCertificatePath": "generic-insurance-certificate.pdf",
    "coverPicture": "generic-lyon-4.jpg"
  },
  {
    "addressLine1": "65 Rue du Général-Leclerc",
    "addressLine2": "Résidence Les Jardins",
    "city": "Lyon",
    "zipCode": "69004",
    "country": "France",
    "longitude": "4.8201634",
    "latitude": "45.7826716",
    "surface": 283,
    "mixedGender": true,
    "ownershipDeedPath": "generic-ownership-deed.pdf",
    "insuranceCertificatePath": "generic-insurance-certificate.pdf",
    "coverPicture": "generic-lyon-5.jpg"
  },
  {
    "addressLine1": "57 Boulevard Carnot",
    "addressLine2": "Bâtiment B, étage 2",
    "city": "Lyon",
    "zipCode": "69005",
    "country": "France",
    "longitude": "4.8142380",
    "latitude": "45.7600955",
    "surface": 307,
    "mixedGender": true,
    "ownershipDeedPath": "generic-ownership-deed.pdf",
    "insuranceCertificatePath": "generic-insurance-certificate.pdf",
    "coverPicture": "generic-lyon-6.jpg"
  },
  {
    "addressLine1": "101 Rue des Lilas",
    "addressLine2": null,
    "city": "Lyon",
    "zipCode": "69008",
    "country": "France",
    "longitude": "4.8781472",
    "latitude": "45.7318714",
    "surface": 331,
    "mixedGender": false,
    "ownershipDeedPath": "generic-ownership-deed.pdf",
    "insuranceCertificatePath": "generic-insurance-certificate.pdf",
    "coverPicture": "generic-lyon-7.jpg"
  },
  {
    "addressLine1": "83 Rue Nationale",
    "addressLine2": "Appartement 5",
    "city": "Lyon",
    "zipCode": "69002",
    "country": "France",
    "longitude": "4.8361050",
    "latitude": "45.7497609",
    "surface": 391,
    "mixedGender": true,
    "ownershipDeedPath": "generic-ownership-deed.pdf",
    "insuranceCertificatePath": "generic-insurance-certificate.pdf",
    "coverPicture": "generic-lyon-8.jpg"
  },
  {
    "addressLine1": "222 Avenue Victor Hugo",
    "addressLine2": "Bâtiment A",
    "city": "Lyon",
    "zipCode": "69009",
    "country": "France",
    "longitude": "4.8024504",
    "latitude": "45.7778250",
    "surface": 315,
    "mixedGender": false,
    "ownershipDeedPath": "generic-ownership-deed.pdf",
    "insuranceCertificatePath": "generic-insurance-certificate.pdf",
    "coverPicture": "generic-lyon-9.jpg"
  },
  {
    "addressLine1": "190 Rue des Lilas",
    "addressLine2": null,
    "city": "Lyon",
    "zipCode": "69003",
    "country": "France",
    "longitude": "4.8737280",
    "latitude": "45.7594682",
    "surface": 419,
    "mixedGender": false,
    "ownershipDeedPath": "generic-ownership-deed.pdf",
    "insuranceCertificatePath": "generic-insurance-certificate.pdf",
    "coverPicture": "generic-lyon-10.jpg"
  },
  {
    "addressLine1": "11 Rue de la Paix",
    "addressLine2": "Résidence Les Jardins",
    "city": "Toulouse",
    "zipCode": "31000",
    "country": "France",
    "longitude": "1.4365897",
    "latitude": "43.6054604",
    "surface": 411,
    "mixedGender": true,
    "ownershipDeedPath": "generic-ownership-deed.pdf",
    "insuranceCertificatePath": "generic-insurance-certificate.pdf",
    "coverPicture": "generic-toulouse-1.jpg"
  },
  {
    "addressLine1": "215 Rue Nationale",
    "addressLine2": "Bâtiment A",
    "city": "Nice",
    "zipCode": "06000",
    "country": "France",
    "longitude": "7.2600869",
    "latitude": "43.7082659",
    "surface": 265,
    "mixedGender": false,
    "ownershipDeedPath": "generic-ownership-deed.pdf",
    "insuranceCertificatePath": "generic-insurance-certificate.pdf",
    "coverPicture": "generic-nice-1.jpg"
  },
  {
    "addressLine1": "98 Rue du Général-Leclerc",
    "addressLine2": null,
    "city": "Nantes",
    "zipCode": "44000",
    "country": "France",
    "longitude": "-1.5599371",
    "latitude": "47.2180444",
    "surface": 288,
    "mixedGender": true,
    "ownershipDeedPath": "generic-ownership-deed.pdf",
    "insuranceCertificatePath": "generic-insurance-certificate.pdf",
    "coverPicture": "generic-nantes-1.jpg"
  },
  {
    "addressLine1": "219 Rue de la République",
    "addressLine2": null,
    "city": "Strasbourg",
    "zipCode": "67000",
    "country": "France",
    "longitude": "7.7413395",
    "latitude": "48.5823633",
    "surface": 447,
    "mixedGender": false,
    "ownershipDeedPath": "generic-ownership-deed.pdf",
    "insuranceCertificatePath": "generic-insurance-certificate.pdf",
    "coverPicture": "generic-strasbourg-1.jpg"
  },
  {
    "addressLine1": "117 Boulevard Carnot",
    "addressLine2": "Bâtiment B, étage 2",
    "city": "Montpellier",
    "zipCode": "34000",
    "country": "France",
    "longitude": "3.8761101",
    "latitude": "43.6154044",
    "surface": 279,
    "mixedGender": false,
    "ownershipDeedPath": "generic-ownership-deed.pdf",
    "insuranceCertificatePath": "generic-insurance-certificate.pdf",
    "coverPicture": "generic-montpellier-1.jpg"
  },
  {
    "addressLine1": "156 Avenue Victor Hugo",
    "addressLine2": "Bâtiment A",
    "city": "Bordeaux",
    "zipCode": "33000",
    "country": "France",
    "longitude": "-0.5917429",
    "latitude": "44.8305564",
    "surface": 283,
    "mixedGender": true,
    "ownershipDeedPath": "generic-ownership-deed.pdf",
    "insuranceCertificatePath": "generic-insurance-certificate.pdf",
    "coverPicture": "generic-bordeaux-1.jpg"
  },
  {
    "addressLine1": "117 Rue du Général-Leclerc",
    "addressLine2": "Appartement 5",
    "city": "Lille",
    "zipCode": "59000",
    "country": "France",
    "longitude": "3.0519859",
    "latitude": "50.6311748",
    "surface": 344,
    "mixedGender": true,
    "ownershipDeedPath": "generic-ownership-deed.pdf",
    "insuranceCertificatePath": "generic-insurance-certificate.pdf",
    "coverPicture": "generic-lille-1.jpg"
  },
  {
    "addressLine1": "112 Rue de la République",
    "addressLine2": "Bâtiment B, étage 2",
    "city": "Rennes",
    "zipCode": "35000",
    "country": "France",
    "longitude": "-1.6872155",
    "latitude": "48.1192382",
    "surface": 256,
    "mixedGender": false,
    "ownershipDeedPath": "generic-ownership-deed.pdf",
    "insuranceCertificatePath": "generic-insurance-certificate.pdf",
    "coverPicture": "generic-rennes-1.jpg"
  },
  {
    "addressLine1": "130 Rue des Lilas",
    "addressLine2": null,
    "city": "Saint-Étienne",
    "zipCode": "42000",
    "country": "France",
    "longitude": "4.3933845",
    "latitude": "45.4398850",
    "surface": 441,
    "mixedGender": true,
    "ownershipDeedPath": "generic-ownership-deed.pdf",
    "insuranceCertificatePath": "generic-insurance-certificate.pdf",
    "coverPicture": "generic-saint-etienne-1.jpg"
  },
  {
    "addressLine1": "193 Rue de la Paix",
    "addressLine2": "Résidence Les Jardins",
    "city": "Grenoble",
    "zipCode": "38000",
    "country": "France",
    "longitude": "5.7317780",
    "latitude": "45.1886690",
    "surface": 193,
    "mixedGender": true,
    "ownershipDeedPath": "generic-ownership-deed.pdf",
    "insuranceCertificatePath": "generic-insurance-certificate.pdf",
    "coverPicture": "generic-grenoble-1.jpg"
  },
  {
    "addressLine1": "77 Rue Nationale",
    "addressLine2": "Bâtiment A",
    "city": "Reims",
    "zipCode": "51100",
    "country": "France",
    "longitude": "4.0357275",
    "latitude": "49.2586768",
    "surface": 352,
    "mixedGender": true,
    "ownershipDeedPath": "generic-ownership-deed.pdf",
    "insuranceCertificatePath": "generic-insurance-certificate.pdf",
    "coverPicture": "generic-reims-1.jpg"
  },
  {
    "addressLine1": "170 Rue des Lilas",
    "addressLine2": "Appartement 5",
    "city": "Toulon",
    "zipCode": "83000",
    "country": "France",
    "longitude": "5.9303838",
    "latitude": "43.1195357",
    "surface": 337,
    "mixedGender": false,
    "ownershipDeedPath": "generic-ownership-deed.pdf",
    "insuranceCertificatePath": "generic-insurance-certificate.pdf",
    "coverPicture": "generic-toulon-1.jpg"
  },
  {
    "addressLine1": "146 Boulevard Carnot",
    "addressLine2": "Bâtiment B, étage 2",
    "city": "Dijon",
    "zipCode": "21000",
    "country": "France",
    "longitude": "5.0384512",
    "latitude": "47.3211535",
    "surface": 275,
    "mixedGender": true,
    "ownershipDeedPath": "generic-ownership-deed.pdf",
    "insuranceCertificatePath": "generic-insurance-certificate.pdf",
    "coverPicture": "generic-dijon-1.jpg"
  },
  {
    "addressLine1": "88 Rue de la République",
    "addressLine2": "Résidence Les Jardins",
    "city": "Angers",
    "zipCode": "49000",
    "country": "France",
    "longitude": "-0.5566339",
    "latitude": "47.4759853",
    "surface": 416,
    "mixedGender": false,
    "ownershipDeedPath": "generic-ownership-deed.pdf",
    "insuranceCertificatePath": "generic-insurance-certificate.pdf",
    "coverPicture": "generic-angers-1.jpg"
  },
  {
    "addressLine1": "179 Boulevard Saint-Germain",
    "addressLine2": null,
    "city": "Nîmes",
    "zipCode": "30000",
    "country": "France",
    "longitude": "4.3688229",
    "latitude": "43.8406191",
    "surface": 340,
    "mixedGender": true,
    "ownershipDeedPath": "generic-ownership-deed.pdf",
    "insuranceCertificatePath": "generic-insurance-certificate.pdf",
    "coverPicture": "generic-nimes-1.jpg"
  },
  {
    "addressLine1": "140 Rue du Général-Leclerc",
    "addressLine2": "Appartement 5",
    "city": "Le Havre",
    "zipCode": "76600",
    "country": "France",
    "longitude": "0.1023072",
    "latitude": "49.4937749",
    "surface": 214,
    "mixedGender": false,
    "ownershipDeedPath": "generic-ownership-deed.pdf",
    "insuranceCertificatePath": "generic-insurance-certificate.pdf",
    "coverPicture": "generic-le-havre-1.jpg"
  },
  {
    "addressLine1": "83 Rue de la Paix",
    "addressLine2": "Bâtiment A",
    "city": "Clermont-Ferrand",
    "zipCode": "63000",
    "country": "France",
    "longitude": "3.0941375",
    "latitude": "45.7810939",
    "surface": 407,
    "mixedGender": false,
    "ownershipDeedPath": "generic-ownership-deed.pdf",
    "insuranceCertificatePath": "generic-insurance-certificate.pdf",
    "coverPicture": "generic-clermont-ferrand-1.jpg"
  },
  {
    "addressLine1": "217 Rue Nationale",
    "addressLine2": null,
    "city": "Nancy",
    "zipCode": "54000",
    "country": "France",
    "longitude": "6.1902575",
    "latitude": "48.6966852",
    "surface": 356,
    "mixedGender": true,
    "ownershipDeedPath": "generic-ownership-deed.pdf",
    "insuranceCertificatePath": "generic-insurance-certificate.pdf",
    "coverPicture": "generic-nancy-1.jpg"
  }
]
